[
  {
    "id": "world-war-i",
    "name": "World War I",
    "country": "Multi-region",
    "lat": 48.85,
    "lon": 2.35,
    "start": "1914-07-28",
    "end": "1918-11-11",
    "description": "Global conflict centered in Europe involving major powers."
  },
  {
    "id": "world-war-ii",
    "name": "World War II",
    "country": "Multi-region",
    "lat": 52.52,
    "lon": 13.40,
    "start": "1939-09-01",
    "end": "1945-09-02",
    "description": "Largest global conflict in modern history."
  },
  {
    "id": "korean-war",
    "name": "Korean War",
    "country": "Korean Peninsula",
    "lat": 37.57,
    "lon": 126.98,
    "start": "1950-06-25",
    "end": "1953-07-27",
    "description": "Conflict between North and South Korea with international involvement."
  },
  {
    "id": "vietnam-war",
    "name": "Vietnam War",
    "country": "Vietnam",
    "lat": 21.03,
    "lon": 105.85,
    "start": "1955-11-01",
    "end": "1975-04-30",
    "description": "Long-running war in Vietnam with major geopolitical impact."
  },
  {
    "id": "iran-iraq-war",
    "name": "Iran Iraq War",
    "country": "Iran/Iraq",
    "lat": 32.43,
    "lon": 53.69,
    "start": "1980-09-22",
    "end": "1988-08-20",
    "description": "Eight-year interstate war between Iran and Iraq."
  },
  {
    "id": "gulf-war",
    "name": "Gulf War",
    "country": "Iraq/Kuwait",
    "lat": 29.37,
    "lon": 47.98,
    "start": "1990-08-02",
    "end": "1991-02-28",
    "description": "Coalition response to Iraq's invasion of Kuwait."
  },
  {
    "id": "yugoslav-wars",
    "name": "Yugoslav Wars",
    "country": "Balkans",
    "lat": 44.81,
    "lon": 20.46,
    "start": "1991-03-31",
    "end": "2001-11-13",
    "description": "Series of conflicts during breakup of Yugoslavia."
  },
  {
    "id": "iraq-war",
    "name": "Iraq War",
    "country": "Iraq",
    "lat": 33.31,
    "lon": 44.36,
    "start": "2003-03-20",
    "end": "2011-12-18",
    "description": "US-led invasion and subsequent insurgency period."
  },
  {
    "id": "syrian-civil-war",
    "name": "Syrian Civil War",
    "country": "Syria",
    "lat": 33.51,
    "lon": 36.29,
    "start": "2011-03-15",
    "end": null,
    "description": "Continuing civil war with regional and global actors."
  },
  {
    "id": "russia-ukraine-war",
    "name": "Russia Ukraine War",
    "country": "Ukraine",
    "lat": 50.45,
    "lon": 30.52,
    "start": "2022-02-24",
    "end": null,
    "description": "Full scale invasion launched in 2022 and ongoing conflict."
  }
]
